[
  {
    "stationName": "Central Silk Board",
    "latitude": "12.9174453",
    "longitude": "77.6233675",
    "line": "Blue",
    "lineColor": "#0000FF",
    "phase": "2A",
    "status": "uc",
    "type": "metro"
  },
  {
    "stationName": "HSR Layout",
    "latitude": "12.9164672",
    "longitude": "77.6330593",
    "line": "Blue",
    "lineColor": "#0000FF",
    "phase": "2A",
    "status": "uc",
    "type": "metro"
  },
  {
    "stationName": "Agara Lake",
    "latitude": "12.920791",
    "longitude": "77.6437319",
    "line": "Blue",
    "lineColor": "#0000FF",
    "phase": "2A",
    "status": "uc",
    "type": "metro"
  },
  {
    "stationName": "Ibbaluru",
    "latitude": "12.9211679",
    "longitude": "77.6630477",
    "line": "Blue",
    "lineColor": "#0000FF",
    "phase": "2A",
    "status": "uc",
    "type": "metro"
  },
  {
    "stationName": "Bellandur",
    "latitude": "12.9276914",
    "longitude": "77.6801937",
    "line": "Blue",
    "lineColor": "#0000FF",
    "phase": "2A",
    "status": "uc",
    "type": "metro"
  },
  {
    "stationName": "Kadubeesanahalli",
    "latitude": "12.9319543",
    "longitude": "77.6872831",
    "line": "Blue",
    "lineColor": "#0000FF",
    "phase": "2A",
    "status": "uc",
    "type": "metro"
  },
  {
    "stationName": "Kodibeesanahalli",
    "latitude": "12.9445228",
    "longitude": "77.6979238",
    "line": "Blue",
    "lineColor": "#0000FF",
    "phase": "2A",
    "status": "uc",
    "type": "metro"
  },
  {
    "stationName": "Marthahalli",
    "latitude": "12.9579796",
    "longitude": "77.7012454",
    "line": "Blue",
    "lineColor": "#0000FF",
    "phase": "2A",
    "status": "uc",
    "type": "metro"
  },
  {
    "stationName": "ISRO",
    "latitude": "12.9690368",
    "longitude": "77.7011184",
    "line": "Blue",
    "lineColor": "#0000FF",
    "phase": "2A",
    "status": "uc",
    "type": "metro"
  },
  {
    "stationName": "Doddanekundi",
    "latitude": "12.9756588",
    "longitude": "77.6970849",
    "line": "Blue",
    "lineColor": "#0000FF",
    "phase": "2A",
    "status": "uc",
    "type": "metro"
  },
  {
    "stationName": "DRDO Sports Complex",
    "latitude": "12.9856993",
    "longitude": "77.6908883",
    "line": "Blue",
    "lineColor": "#0000FF",
    "phase": "2A",
    "status": "uc",
    "type": "metro"
  },
  {
    "stationName": "Mahadevapura",
    "latitude": "12.9937771",
    "longitude": "77.6855187",
    "line": "Blue",
    "lineColor": "#0000FF",
    "phase": "2A",
    "status": "uc",
    "type": "metro"
  },
  {
    "stationName": "Krishnarajapuram",
    "latitude": "13.0001292",
    "longitude": "77.6775377",
    "line": "Blue",
    "lineColor": "#0000FF",
    "phase": "2A",
    "status": "uc",
    "type": "metro"
  },
  {
    "stationName": "Kasturinagara",
    "latitude": "13.0078096",
    "longitude": "77.6626458",
    "line": "Blue",
    "lineColor": "#0000FF",
    "phase": "2B",
    "status": "uc",
    "type": "metro"
  },
  {
    "stationName": "Horamavu",
    "latitude": "13.0171042",
    "longitude": "77.6601071",
    "line": "Blue",
    "lineColor": "#0000FF",
    "phase": "2B",
    "status": "uc",
    "type": "metro"
  },
  {
    "stationName": "HRBR Layout",
    "latitude": "13.022618",
    "longitude": "77.6472283",
    "line": "Blue",
    "lineColor": "#0000FF",
    "phase": "2B",
    "status": "uc",
    "type": "metro"
  },
  {
    "stationName": "Kalyan Nagar",
    "latitude": "13.0261172",
    "longitude": "77.6383808",
    "line": "Blue",
    "lineColor": "#0000FF",
    "phase": "2B",
    "status": "uc",
    "type": "metro"
  },
  {
    "stationName": "HBR Layout",
    "latitude": "13.0325812",
    "longitude": "77.6297839",
    "line": "Blue",
    "lineColor": "#0000FF",
    "phase": "2B",
    "status": "uc",
    "type": "metro"
  },
  {
    "stationName": "Nagawara",
    "latitude": "13.0400614",
    "longitude": "77.6244154",
    "line": "Blue",
    "lineColor": "#0000FF",
    "phase": "2B",
    "status": "uc",
    "type": "metro"
  },
  {
    "stationName": "Veeranapalya",
    "latitude": "13.0411485",
    "longitude": "77.6182646",
    "line": "Blue",
    "lineColor": "#0000FF",
    "phase": "2B",
    "status": "uc",
    "type": "metro"
  },
  {
    "stationName": "Kempapura",
    "latitude": "13.0436735",
    "longitude": "77.6039072",
    "line": "Blue",
    "lineColor": "#0000FF",
    "phase": "2B",
    "status": "uc",
    "type": "metro"
  },
  {
    "stationName": "Hebbal",
    "latitude": "13.0437459",
    "longitude": "77.5932326",
    "line": "Blue",
    "lineColor": "#0000FF",
    "phase": "2B",
    "status": "uc",
    "type": "metro"
  },
  {
    "stationName": "Kodigehalli",
    "latitude": "13.0568706",
    "longitude": "77.5936174",
    "line": "Blue",
    "lineColor": "#0000FF",
    "phase": "2B",
    "status": "uc",
    "type": "metro"
  },
  {
    "stationName": "Jakkur Cross",
    "latitude": "13.0710381",
    "longitude": "77.5930749",
    "line": "Blue",
    "lineColor": "#0000FF",
    "phase": "2B",
    "status": "uc",
    "type": "metro"
  },
  {
    "stationName": "Bagalur Cross",
    "latitude": "13.1191903",
    "longitude": "77.6097328",
    "line": "Blue",
    "lineColor": "#0000FF",
    "phase": "2B",
    "status": "uc",
    "type": "metro"
  },
  {
    "stationName": "Allalasandra",
    "latitude": "13.0885214",
    "longitude": "77.5961038",
    "line": "Blue",
    "lineColor": "#0000FF",
    "phase": "2B",
    "status": "uc",
    "type": "metro"
  },
  {
    "stationName": "Yelahanka",
    "latitude": "13.1026124",
    "longitude": "77.6002885",
    "line": "Blue",
    "lineColor": "#0000FF",
    "phase": "2B",
    "status": "uc",
    "type": "metro"
  },
  {
    "stationName": "Bettahalasuru",
    "latitude": "13.1521697",
    "longitude": "77.6206478",
    "line": "Blue",
    "lineColor": "#0000FF",
    "phase": "2B",
    "status": "uc",
    "type": "metro"
  },
  {
    "stationName": "Chikkajala",
    "latitude": "13.1692993",
    "longitude": "77.6319904",
    "line": "Blue",
    "lineColor": "#0000FF",
    "phase": "2B",
    "status": "uc",
    "type": "metro"
  },
  {
    "stationName": "Doddajala",
    "latitude": "13.188573",
    "longitude": "77.6446773",
    "line": "Blue",
    "lineColor": "#0000FF",
    "phase": "2B",
    "status": "uc",
    "type": "metro"
  },
  {
    "stationName": "Airport City",
    "latitude": "13.198353",
    "longitude": "77.6860948",
    "line": "Blue",
    "lineColor": "#0000FF",
    "phase": "2B",
    "status": "uc",
    "type": "metro"
  },
  {
    "stationName": "KIADB Airport Terminal",
    "latitude": "13.1980642",
    "longitude": "77.7123653",
    "line": "Blue",
    "lineColor": "#0000FF",
    "phase": "2B",
    "status": "uc",
    "type": "metro"
  },
  {
    "stationName": "Kalena Agrahara",
    "latitude": "12.871489",
    "longitude": "77.5937198",
    "line": "Pink",
    "lineColor": "#AA336A",
    "phase": "2",
    "status": "uc",
    "type": "metro"
  },
  {
    "stationName": "Hulimavu",
    "latitude": "12.8809096",
    "longitude": "77.5957824",
    "line": "Pink",
    "lineColor": "#AA336A",
    "phase": "2",
    "status": "uc",
    "type": "metro"
  },
  {
    "stationName": "IIM Bangalore",
    "latitude": "12.8956944",
    "longitude": "77.5996498",
    "line": "Pink",
    "lineColor": "#AA336A",
    "phase": "2",
    "status": "uc",
    "type": "metro"
  },
  {
    "stationName": "JP Nagar 4th Phase",
    "latitude": "12.9098124",
    "longitude": "77.6002087",
    "line": "Pink",
    "lineColor": "#AA336A",
    "phase": "2",
    "status": "uc",
    "type": "metro"
  },
  {
    "stationName": "Jayadeva Hospital",
    "latitude": "12.9167903",
    "longitude": "77.5999394",
    "line": "Pink",
    "lineColor": "#AA336A",
    "phase": "2",
    "status": "uc",
    "type": "metro"
  },
  {
    "stationName": "Tavarekere",
    "latitude": "12.929508",
    "longitude": "77.600567",
    "line": "Pink",
    "lineColor": "#AA336A",
    "phase": "2",
    "status": "uc",
    "type": "metro"
  },
  {
    "stationName": "Dairy Circle",
    "latitude": "12.9408744",
    "longitude": "77.6023938",
    "line": "Pink",
    "lineColor": "#AA336A",
    "phase": "2",
    "status": "uc",
    "type": "metro"
  },
  {
    "stationName": "Lakkasandra",
    "latitude": "12.949225",
    "longitude": "77.603012",
    "line": "Pink",
    "lineColor": "#AA336A",
    "phase": "2",
    "status": "uc",
    "type": "metro"
  },
  {
    "stationName": "Langford Town",
    "latitude": "12.9574188",
    "longitude": "77.6061889",
    "line": "Pink",
    "lineColor": "#AA336A",
    "phase": "2",
    "status": "uc",
    "type": "metro"
  },
  {
    "stationName": "National Military School",
    "latitude": "12.9638776",
    "longitude": "77.6070197",
    "line": "Pink",
    "lineColor": "#AA336A",
    "phase": "2",
    "status": "uc",
    "type": "metro"
  },
  {
    "stationName": "MG Road",
    "latitude": "12.9761561",
    "longitude": "77.6083077",
    "line": "Pink",
    "lineColor": "#AA336A",
    "phase": "2",
    "status": "uc",
    "type": "metro"
  },
  {
    "stationName": "Tannery Road",
    "latitude": "13.0094257",
    "longitude": "77.6139273",
    "line": "Pink",
    "lineColor": "#AA336A",
    "phase": "2",
    "status": "uc",
    "type": "metro"
  },
  {
    "stationName": "Shivajinagar ",
    "latitude": "12.9838144",
    "longitude": "77.6022567",
    "line": "Pink",
    "lineColor": "#AA336A",
    "phase": "2",
    "status": "uc",
    "type": "metro"
  },
  {
    "stationName": "Cantonment",
    "latitude": "12.9920036",
    "longitude": "77.6062953",
    "line": "Pink",
    "lineColor": "#AA336A",
    "phase": "2",
    "status": "uc",
    "type": "metro"
  },
  {
    "stationName": "Pottery Town",
    "latitude": "13.0007636",
    "longitude": "77.6096939",
    "line": "Pink",
    "lineColor": "#AA336A",
    "phase": "2",
    "status": "uc",
    "type": "metro"
  },
  {
    "stationName": "Venkateshpura",
    "latitude": "13.0176674",
    "longitude": "77.6181144",
    "line": "Pink",
    "lineColor": "#AA336A",
    "phase": "2",
    "status": "uc",
    "type": "metro"
  },
  {
    "stationName": "Kadugundanahalli",
    "latitude": "13.0296229",
    "longitude": "77.6206498",
    "line": "Pink",
    "lineColor": "#AA336A",
    "phase": "2",
    "status": "uc",
    "type": "metro"
  },
  {
    "stationName": "Nagawara",
    "latitude": "13.0408212",
    "longitude": "77.6248018",
    "line": "Pink",
    "lineColor": "#AA336A",
    "phase": "2",
    "status": "uc",
    "type": "metro"
  },
  {
    "stationName": "Rashtreeya Vidyalaya Road",
    "latitude": "12.9215912",
    "longitude": "77.5800313",
    "line": "Yellow",
    "lineColor": "#EFEC0F",
    "phase": "2",
    "status": "uc",
    "type": "metro"
  },
  {
    "stationName": "Ragigudda",
    "latitude": "12.917042",
    "longitude": "77.5883309",
    "line": "Yellow",
    "lineColor": "#EFEC0F",
    "phase": "2",
    "status": "uc",
    "type": "metro"
  },
  {
    "stationName": "Jayadeva Hospital",
    "latitude": "12.9167406",
    "longitude": "77.5999272",
    "line": "Yellow",
    "lineColor": "#EFEC0F",
    "phase": "2",
    "status": "uc",
    "type": "metro"
  },
  {
    "stationName": "BTM Layout",
    "latitude": "12.9166168",
    "longitude": "77.6080616",
    "line": "Yellow",
    "lineColor": "#EFEC0F",
    "phase": "2",
    "status": "uc",
    "type": "metro"
  },
  {
    "stationName": "Central Silk Board",
    "latitude": "12.9164951",
    "longitude": "77.6204612",
    "line": "Yellow",
    "lineColor": "#EFEC0F",
    "phase": "2",
    "status": "uc",
    "type": "metro"
  },
  {
    "stationName": "Bommanahalli",
    "latitude": "12.910733",
    "longitude": "77.6263513",
    "line": "Yellow",
    "lineColor": "#EFEC0F",
    "phase": "2",
    "status": "uc",
    "type": "metro"
  },
  {
    "stationName": "Hongasandra",
    "latitude": "12.9017432",
    "longitude": "77.6318981",
    "line": "Yellow",
    "lineColor": "#EFEC0F",
    "phase": "2",
    "status": "uc",
    "type": "metro"
  },
  {
    "stationName": "Kudlu Gate",
    "latitude": "12.8898578",
    "longitude": "77.6391646",
    "line": "Yellow",
    "lineColor": "#EFEC0F",
    "phase": "2",
    "status": "uc",
    "type": "metro"
  },
  {
    "stationName": "Singasandra",
    "latitude": "12.8807061",
    "longitude": "77.6448236",
    "line": "Yellow",
    "lineColor": "#EFEC0F",
    "phase": "2",
    "status": "uc",
    "type": "metro"
  },
  {
    "stationName": "Hosa Road",
    "latitude": "12.8707221",
    "longitude": "77.6523603",
    "line": "Yellow",
    "lineColor": "#EFEC0F",
    "phase": "2",
    "status": "uc",
    "type": "metro"
  },
  {
    "stationName": "Beratena Agrahara",
    "latitude": "12.8638156",
    "longitude": "77.6578497",
    "line": "Yellow",
    "lineColor": "#EFEC0F",
    "phase": "2",
    "status": "uc",
    "type": "metro"
  },
  {
    "stationName": "Electronic City",
    "latitude": "12.8563229",
    "longitude": "77.6636536",
    "line": "Yellow",
    "lineColor": "#EFEC0F",
    "phase": "2",
    "status": "uc",
    "type": "metro"
  },
  {
    "stationName": "Konappana Agrahara",
    "latitude": "12.846481",
    "longitude": "77.6710731",
    "line": "Yellow",
    "lineColor": "#EFEC0F",
    "phase": "2",
    "status": "uc",
    "type": "metro"
  },
  {
    "stationName": "Huskur Road",
    "latitude": "12.8390822",
    "longitude": "77.6773666",
    "line": "Yellow",
    "lineColor": "#EFEC0F",
    "phase": "2",
    "status": "uc",
    "type": "metro"
  },
  {
    "stationName": "Hebbagodi",
    "latitude": "12.8289951",
    "longitude": "77.6813278",
    "line": "Yellow",
    "lineColor": "#EFEC0F",
    "phase": "2",
    "status": "uc",
    "type": "metro"
  },
  {
    "stationName": "Bommasandra",
    "latitude": "12.8194782",
    "longitude": "77.6882819",
    "line": "Yellow",
    "lineColor": "#EFEC0F",
    "phase": "2",
    "status": "uc",
    "type": "metro"
  },
  {
    "stationName": "Madavara",
    "latitude": "13.0573735",
    "longitude": "77.4727123",
    "line": "Green",
    "lineColor": "#4CBB17",
    "phase": "2",
    "status": "uc",
    "type": "metro"
  },
  {
    "stationName": "Chikkabidarakallu",
    "latitude": "13.0524451",
    "longitude": "77.487803",
    "line": "Green",
    "lineColor": "#4CBB18",
    "phase": "2",
    "status": "uc",
    "type": "metro"
  },
  {
    "stationName": "Manjunathanagara",
    "latitude": "13.0501173",
    "longitude": "77.494385",
    "line": "Green",
    "lineColor": "#4CBB19",
    "phase": "2",
    "status": "uc",
    "type": "metro"
  },
  {
    "stationName": "Nagasandra",
    "latitude": "13.0480936",
    "longitude": "77.5001184",
    "line": "Green",
    "lineColor": "#4CBB20",
    "phase": "1",
    "status": "op",
    "type": "metro"
  },
  {
    "stationName": "Dasarahalli",
    "latitude": "13.0433931",
    "longitude": "77.5125384",
    "line": "Green",
    "lineColor": "#4CBB21",
    "phase": "1",
    "status": "op",
    "type": "metro"
  },
  {
    "stationName": "Jalahalli",
    "latitude": "13.039463",
    "longitude": "77.5198743",
    "line": "Green",
    "lineColor": "#4CBB22",
    "phase": "1",
    "status": "op",
    "type": "metro"
  },
  {
    "stationName": "Peenya Industry",
    "latitude": "13.036352",
    "longitude": "77.5256154",
    "line": "Green",
    "lineColor": "#4CBB23",
    "phase": "1",
    "status": "op",
    "type": "metro"
  },
  {
    "stationName": "Peenya",
    "latitude": "13.0329402",
    "longitude": "77.5334794",
    "line": "Green",
    "lineColor": "#4CBB24",
    "phase": "1",
    "status": "op",
    "type": "metro"
  },
  {
    "stationName": "Goraguntepalya",
    "latitude": "13.0284176",
    "longitude": "77.5409003",
    "line": "Green",
    "lineColor": "#4CBB25",
    "phase": "1",
    "status": "op",
    "type": "metro"
  },
  {
    "stationName": "Yeshwantpur",
    "latitude": "13.0232532",
    "longitude": "77.5498586",
    "line": "Green",
    "lineColor": "#4CBB26",
    "phase": "1",
    "status": "op",
    "type": "metro"
  },
  {
    "stationName": "Sandal Soap Factory",
    "latitude": "13.0147132",
    "longitude": "77.5540606",
    "line": "Green",
    "lineColor": "#4CBB27",
    "phase": "1",
    "status": "op",
    "type": "metro"
  },
  {
    "stationName": "Mahalakshmi",
    "latitude": "13.0082501",
    "longitude": "77.5488796",
    "line": "Green",
    "lineColor": "#4CBB28",
    "phase": "1",
    "status": "op",
    "type": "metro"
  },
  {
    "stationName": "Rajajinagar",
    "latitude": "13.0001964",
    "longitude": "77.5498001",
    "line": "Green",
    "lineColor": "#4CBB29",
    "phase": "1",
    "status": "op",
    "type": "metro"
  },
  {
    "stationName": "Mahakavi Kuvempu Road",
    "latitude": "12.9984353",
    "longitude": "77.5570179",
    "line": "Green",
    "lineColor": "#4CBB30",
    "phase": "1",
    "status": "op",
    "type": "metro"
  },
  {
    "stationName": "Srirampura",
    "latitude": "12.9964873",
    "longitude": "77.5633595",
    "line": "Green",
    "lineColor": "#4CBB31",
    "phase": "1",
    "status": "op",
    "type": "metro"
  },
  {
    "stationName": "Mantri Square Sampige Road",
    "latitude": "12.9904225",
    "longitude": "77.5708686",
    "line": "Green",
    "lineColor": "#4CBB32",
    "phase": "1",
    "status": "op",
    "type": "metro"
  },
  {
    "stationName": "Majestic",
    "latitude": "12.9756736",
    "longitude": "77.5728489",
    "line": "Green",
    "lineColor": "#4CBB33",
    "phase": "1",
    "status": "op",
    "type": "metro"
  },
  {
    "stationName": "Chickpete",
    "latitude": "12.9675615",
    "longitude": "77.5747703",
    "line": "Green",
    "lineColor": "#4CBB34",
    "phase": "1",
    "status": "op",
    "type": "metro"
  },
  {
    "stationName": "Krishna Rajendra Market",
    "latitude": "12.9601119",
    "longitude": "77.5745773",
    "line": "Green",
    "lineColor": "#4CBB35",
    "phase": "1",
    "status": "op",
    "type": "metro"
  },
  {
    "stationName": "National College",
    "latitude": "12.9506096",
    "longitude": "77.5737661",
    "line": "Green",
    "lineColor": "#4CBB36",
    "phase": "1",
    "status": "op",
    "type": "metro"
  },
  {
    "stationName": "Lalbagh Botanical Garden",
    "latitude": "12.9462971",
    "longitude": "77.5800611",
    "line": "Green",
    "lineColor": "#4CBB37",
    "phase": "1",
    "status": "op",
    "type": "metro"
  },
  {
    "stationName": "South End Circle",
    "latitude": "12.9383258",
    "longitude": "77.5800932",
    "line": "Green",
    "lineColor": "#4CBB38",
    "phase": "1",
    "status": "op",
    "type": "metro"
  },
  {
    "stationName": "Jayanagar",
    "latitude": "12.929647",
    "longitude": "77.5801955",
    "line": "Green",
    "lineColor": "#4CBB39",
    "phase": "1",
    "status": "op",
    "type": "metro"
  },
  {
    "stationName": "Rashtreeya Vidyalaya Road",
    "latitude": "12.9216011",
    "longitude": "77.5802889",
    "line": "Green",
    "lineColor": "#4CBB40",
    "phase": "1",
    "status": "op",
    "type": "metro"
  },
  {
    "stationName": "Banashankari",
    "latitude": "12.9154006",
    "longitude": "77.5737287",
    "line": "Green",
    "lineColor": "#4CBB41",
    "phase": "1",
    "status": "op",
    "type": "metro"
  },
  {
    "stationName": "Jaya Prakash Nagar",
    "latitude": "12.9074148",
    "longitude": "77.5731721",
    "line": "Green",
    "lineColor": "#4CBB42",
    "phase": "1",
    "status": "op",
    "type": "metro"
  },
  {
    "stationName": "Yelachenahalli",
    "latitude": "12.8959951",
    "longitude": "77.5702504",
    "line": "Green",
    "lineColor": "#4CBB43",
    "phase": "1",
    "status": "op",
    "type": "metro"
  },
  {
    "stationName": "Konakunte Cross",
    "latitude": "12.8888422",
    "longitude": "77.5627908",
    "line": "Green",
    "lineColor": "#4CBB44",
    "phase": "2",
    "status": "op",
    "type": "metro"
  },
  {
    "stationName": "Doddakallasandra",
    "latitude": "12.8845931",
    "longitude": "77.5528811",
    "line": "Green",
    "lineColor": "#4CBB45",
    "phase": "2",
    "status": "op",
    "type": "metro"
  },
  {
    "stationName": "Vajarahalli",
    "latitude": "12.8774092",
    "longitude": "77.5448941",
    "line": "Green",
    "lineColor": "#4CBB46",
    "phase": "2",
    "status": "op",
    "type": "metro"
  },
  {
    "stationName": "Thalaghattapura",
    "latitude": "12.8713094",
    "longitude": "77.5384573",
    "line": "Green",
    "lineColor": "#4CBB47",
    "phase": "2",
    "status": "op",
    "type": "metro"
  },
  {
    "stationName": "Silk Institute",
    "latitude": "12.8616746",
    "longitude": "77.5299889",
    "line": "Green",
    "lineColor": "#4CBB48",
    "phase": "2",
    "status": "op",
    "type": "metro"
  },
  {
    "stationName": "Whitefield",
    "latitude": "12.9954962",
    "longitude": "77.7578322",
    "line": "Purple",
    "lineColor": "#800080",
    "phase": "2",
    "status": "op",
    "type": "metro"
  },
  {
    "stationName": "Channasandra",
    "latitude": "12.987021",
    "longitude": "77.7534876",
    "line": "Purple",
    "lineColor": "#800080",
    "phase": "2",
    "status": "op",
    "type": "metro"
  },
  {
    "stationName": "Kadugodi",
    "latitude": "12.9856295",
    "longitude": "77.7469209",
    "line": "Purple",
    "lineColor": "#800080",
    "phase": "2",
    "status": "op",
    "type": "metro"
  },
  {
    "stationName": "Pattandur Agrahara",
    "latitude": "12.9875231",
    "longitude": "77.7378376",
    "line": "Purple",
    "lineColor": "#800080",
    "phase": "2",
    "status": "op",
    "type": "metro"
  },
  {
    "stationName": "Sadaramangala",
    "latitude": "12.9810905",
    "longitude": "77.7275921",
    "line": "Purple",
    "lineColor": "#800080",
    "phase": "2",
    "status": "op",
    "type": "metro"
  },
  {
    "stationName": "Nallurhalli",
    "latitude": "12.9765021",
    "longitude": "77.7248737",
    "line": "Purple",
    "lineColor": "#800080",
    "phase": "2",
    "status": "op",
    "type": "metro"
  },
  {
    "stationName": "Kundalahalli ",
    "latitude": "12.9774906",
    "longitude": "77.7157149",
    "line": "Purple",
    "lineColor": "#800080",
    "phase": "2",
    "status": "op",
    "type": "metro"
  },
  {
    "stationName": "Sitharamapalya",
    "latitude": "12.9809705",
    "longitude": "77.7087566",
    "line": "Purple",
    "lineColor": "#800080",
    "phase": "2",
    "status": "op",
    "type": "metro"
  },
  {
    "stationName": "Hoodi Junction",
    "latitude": "12.9887588",
    "longitude": "77.7114339",
    "line": "Purple",
    "lineColor": "#800080",
    "phase": "2",
    "status": "op",
    "type": "metro"
  },
  {
    "stationName": "Garudacharapalya",
    "latitude": "12.9933421",
    "longitude": "77.7037884",
    "line": "Purple",
    "lineColor": "#800080",
    "phase": "2",
    "status": "op",
    "type": "metro"
  },
  {
    "stationName": "Mahadevapura",
    "latitude": "12.996564",
    "longitude": "77.6925936",
    "line": "Purple",
    "lineColor": "#800080",
    "phase": "2",
    "status": "op",
    "type": "metro"
  },
  {
    "stationName": "Krishnarajapuram",
    "latitude": "12.9999212",
    "longitude": "77.6777292",
    "line": "Purple",
    "lineColor": "#800080",
    "phase": "2",
    "status": "op",
    "type": "metro"
  },
  {
    "stationName": "Benniganahalli",
    "latitude": "12.9964976",
    "longitude": "77.6684701",
    "line": "Purple",
    "lineColor": "#800080",
    "phase": "2",
    "status": "uc",
    "type": "metro"
  },
  {
    "stationName": "Baiyappanahalli",
    "latitude": "12.9906666",
    "longitude": "77.6526018",
    "line": "Purple",
    "lineColor": "#800080",
    "phase": "1",
    "status": "op",
    "type": "metro"
  },
  {
    "stationName": "Swami Vivekananda Road",
    "latitude": "12.9858932",
    "longitude": "77.6450102",
    "line": "Purple",
    "lineColor": "#800080",
    "phase": "1",
    "status": "op",
    "type": "metro"
  },
  {
    "stationName": "Indiranagara",
    "latitude": "12.9782043",
    "longitude": "77.6386703",
    "line": "Purple",
    "lineColor": "#800080",
    "phase": "1",
    "status": "op",
    "type": "metro"
  },
  {
    "stationName": "Halasuru",
    "latitude": "12.9765019",
    "longitude": "77.6267697",
    "line": "Purple",
    "lineColor": "#800080",
    "phase": "1",
    "status": "op",
    "type": "metro"
  },
  {
    "stationName": "Trinity",
    "latitude": "12.9730267",
    "longitude": "77.6168569",
    "line": "Purple",
    "lineColor": "#800080",
    "phase": "1",
    "status": "op",
    "type": "metro"
  },
  {
    "stationName": "MG Road",
    "latitude": "12.9755481",
    "longitude": "77.6065075",
    "line": "Purple",
    "lineColor": "#800080",
    "phase": "1",
    "status": "op",
    "type": "metro"
  },
  {
    "stationName": "Cubbon Park",
    "latitude": "12.980902",
    "longitude": "77.5974563",
    "line": "Purple",
    "lineColor": "#800080",
    "phase": "1",
    "status": "op",
    "type": "metro"
  },
  {
    "stationName": "Vidhan Soudha",
    "latitude": "12.9796832",
    "longitude": "77.5926381",
    "line": "Purple",
    "lineColor": "#800080",
    "phase": "1",
    "status": "op",
    "type": "metro"
  },
  {
    "stationName": "Sir M Visvesvarya",
    "latitude": "12.9742799",
    "longitude": "77.5839607",
    "line": "Purple",
    "lineColor": "#800080",
    "phase": "1",
    "status": "op",
    "type": "metro"
  },
  {
    "stationName": "Majestic",
    "latitude": "12.9756736",
    "longitude": "77.5728489",
    "line": "Purple",
    "lineColor": "#800080",
    "phase": "1",
    "status": "op",
    "type": "metro"
  },
  {
    "stationName": "KSR",
    "latitude": "12.9758447",
    "longitude": "77.5657599",
    "line": "Purple",
    "lineColor": "#800080",
    "phase": "1",
    "status": "op",
    "type": "metro"
  },
  {
    "stationName": "Magadi Road",
    "latitude": "12.9756529",
    "longitude": "77.5554158",
    "line": "Purple",
    "lineColor": "#800080",
    "phase": "1",
    "status": "op",
    "type": "metro"
  },
  {
    "stationName": "Hosahalli",
    "latitude": "12.9742424",
    "longitude": "77.5454511",
    "line": "Purple",
    "lineColor": "#800080",
    "phase": "1",
    "status": "op",
    "type": "metro"
  },
  {
    "stationName": "Vijayanagar",
    "latitude": "12.9708026",
    "longitude": "77.5373816",
    "line": "Purple",
    "lineColor": "#800080",
    "phase": "1",
    "status": "op",
    "type": "metro"
  },
  {
    "stationName": "Attiguppe",
    "latitude": "12.9621511",
    "longitude": "77.5337615",
    "line": "Purple",
    "lineColor": "#800080",
    "phase": "1",
    "status": "op",
    "type": "metro"
  },
  {
    "stationName": "Deepanjali Nagar",
    "latitude": "12.9520359",
    "longitude": "77.537114",
    "line": "Purple",
    "lineColor": "#800080",
    "phase": "1",
    "status": "op",
    "type": "metro"
  },
  {
    "stationName": "Mysuru Road",
    "latitude": "12.9467311",
    "longitude": "77.5302314",
    "line": "Purple",
    "lineColor": "#800080",
    "phase": "1",
    "status": "op",
    "type": "metro"
  },
  {
    "stationName": "Nayandahalli",
    "latitude": "12.9417617",
    "longitude": "77.525203",
    "line": "Purple",
    "lineColor": "#800080",
    "phase": "2",
    "status": "op",
    "type": "metro"
  },
  {
    "stationName": "Rajarajeshwari Nagar",
    "latitude": "12.9367367",
    "longitude": "77.5196935",
    "line": "Purple",
    "lineColor": "#800080",
    "phase": "2",
    "status": "op",
    "type": "metro"
  },
  {
    "stationName": "Jnanabharathi",
    "latitude": "12.9354133",
    "longitude": "77.5123373",
    "line": "Purple",
    "lineColor": "#800080",
    "phase": "2",
    "status": "op",
    "type": "metro"
  },
  {
    "stationName": "Pattanagere",
    "latitude": "12.9242638",
    "longitude": "77.4983113",
    "line": "Purple",
    "lineColor": "#800080",
    "phase": "2",
    "status": "op",
    "type": "metro"
  },
  {
    "stationName": "Kengeri Bus Terminal",
    "latitude": "12.9146295",
    "longitude": "77.4877379",
    "line": "Purple",
    "lineColor": "#800080",
    "phase": "2",
    "status": "op",
    "type": "metro"
  },
  {
    "stationName": "Kengeri",
    "latitude": "12.9079134",
    "longitude": "77.4764807",
    "line": "Purple",
    "lineColor": "#800080",
    "phase": "2",
    "status": "op",
    "type": "metro"
  },
  {
    "stationName": "Challaghatta",
    "latitude": "12.8973642",
    "longitude": "77.4612634",
    "line": "Purple",
    "lineColor": "#800080",
    "phase": "2",
    "status": "uc",
    "type": "metro"
  },
  {
    "stationName": "JP Nagar Phase 4",
    "latitude": "12.9098098",
    "longitude": "77.6000325",
    "line": "Orange",
    "lineColor": "#FFA500",
    "phase": "3",
    "status": "pl",
    "type": "metro"
  },
  {
    "stationName": "JP Nagar Phase 5",
    "latitude": "12.9063341",
    "longitude": "77.5863148",
    "line": "Orange",
    "lineColor": "#FFA501",
    "phase": "3",
    "status": "pl",
    "type": "metro"
  },
  {
    "stationName": "Jaya Prakash Nagar",
    "latitude": "12.9064597",
    "longitude": "77.5740737",
    "line": "Orange",
    "lineColor": "#FFA502",
    "phase": "3",
    "status": "pl",
    "type": "metro"
  },
  {
    "stationName": "Kadirenahalli Cross",
    "latitude": "12.9134837",
    "longitude": "77.5663184",
    "line": "Orange",
    "lineColor": "#FFA503",
    "phase": "3",
    "status": "pl",
    "type": "metro"
  },
  {
    "stationName": "Kamakya Bus Depot",
    "latitude": "12.9236745",
    "longitude": "77.5541413",
    "line": "Orange",
    "lineColor": "#FFA504",
    "phase": "3",
    "status": "pl",
    "type": "metro"
  },
  {
    "stationName": "Hosakerahalli Cross",
    "latitude": "12.9289365",
    "longitude": "77.5452052",
    "line": "Orange",
    "lineColor": "#FFA505",
    "phase": "3",
    "status": "pl",
    "type": "metro"
  },
  {
    "stationName": "PES Institute",
    "latitude": "12.9380387",
    "longitude": "77.5336198",
    "line": "Orange",
    "lineColor": "#FFA506",
    "phase": "3",
    "status": "pl",
    "type": "metro"
  },
  {
    "stationName": "Mysuru Road",
    "latitude": "12.9459564",
    "longitude": "77.527283",
    "line": "Orange",
    "lineColor": "#FFA507",
    "phase": "3",
    "status": "pl",
    "type": "metro"
  },
  {
    "stationName": "Nagarbhavi Circle",
    "latitude": "12.9576652",
    "longitude": "77.5192825",
    "line": "Orange",
    "lineColor": "#FFA508",
    "phase": "3",
    "status": "pl",
    "type": "metro"
  },
  {
    "stationName": "Vinayaka Layout",
    "latitude": "12.960642",
    "longitude": "77.5078901",
    "line": "Orange",
    "lineColor": "#FFA509",
    "phase": "3",
    "status": "pl",
    "type": "metro"
  },
  {
    "stationName": "Ambedkar Institute of Engineering",
    "latitude": "12.9678933",
    "longitude": "77.5057013",
    "line": "Orange",
    "lineColor": "#FFA510",
    "phase": "3",
    "status": "pl",
    "type": "metro"
  },
  {
    "stationName": "BDA Complex",
    "latitude": "12.9803327",
    "longitude": "77.5109027",
    "line": "Orange",
    "lineColor": "#FFA511",
    "phase": "3",
    "status": "pl",
    "type": "metro"
  },
  {
    "stationName": "Sumanahalli Cross",
    "latitude": "12.9881064",
    "longitude": "77.5199472",
    "line": "Orange",
    "lineColor": "#FFA512",
    "phase": "3",
    "status": "pl",
    "type": "metro"
  },
  {
    "stationName": "Chowdeshwari Nagara",
    "latitude": "12.9971185",
    "longitude": "77.5233167",
    "line": "Orange",
    "lineColor": "#FFA513",
    "phase": "3",
    "status": "pl",
    "type": "metro"
  },
  {
    "stationName": "Freedom Fighters Cross",
    "latitude": "13.0059424",
    "longitude": "77.5267491",
    "line": "Orange",
    "lineColor": "#FFA514",
    "phase": "3",
    "status": "pl",
    "type": "metro"
  },
  {
    "stationName": "Kanteerava Studio",
    "latitude": "13.0216051",
    "longitude": "77.5326321",
    "line": "Orange",
    "lineColor": "#FFA515",
    "phase": "3",
    "status": "pl",
    "type": "metro"
  },
  {
    "stationName": "Peenya",
    "latitude": "13.0314066",
    "longitude": "77.5332459",
    "line": "Orange",
    "lineColor": "#FFA516",
    "phase": "3",
    "status": "pl",
    "type": "metro"
  },
  {
    "stationName": "Bahubhali Nagara",
    "latitude": "13.0416964",
    "longitude": "77.5470437",
    "line": "Orange",
    "lineColor": "#FFA517",
    "phase": "3",
    "status": "pl",
    "type": "metro"
  },
  {
    "stationName": "BEL Circle",
    "latitude": "13.0437485",
    "longitude": "77.5584728",
    "line": "Orange",
    "lineColor": "#FFA518",
    "phase": "3",
    "status": "pl",
    "type": "metro"
  },
  {
    "stationName": "Patelappa Layout",
    "latitude": "13.0473607",
    "longitude": "77.5748759",
    "line": "Orange",
    "lineColor": "#FFA519",
    "phase": "3",
    "status": "pl",
    "type": "metro"
  },
  {
    "stationName": "Hebbal",
    "latitude": "13.0425488",
    "longitude": "77.5921943",
    "line": "Orange",
    "lineColor": "#FFA520",
    "phase": "3",
    "status": "pl",
    "type": "metro"
  },
  {
    "stationName": "Kempapura",
    "latitude": "13.0434944",
    "longitude": "77.6039137",
    "line": "Orange",
    "lineColor": "#FFA521",
    "phase": "3",
    "status": "pl",
    "type": "metro"
  },
  {
    "stationName": "Hosahalli",
    "latitude": "12.9750286",
    "longitude": "77.548237",
    "line": "Orange",
    "lineColor": "#FFA522",
    "phase": "3",
    "status": "pl",
    "type": "metro"
  },
  {
    "stationName": "KHB Colony",
    "latitude": "12.9803557",
    "longitude": "77.5375005",
    "line": "Orange",
    "lineColor": "#FFA523",
    "phase": "3",
    "status": "pl",
    "type": "metro"
  },
  {
    "stationName": "Vinayaka Nagara",
    "latitude": "12.9853744",
    "longitude": "77.5249064",
    "line": "Orange",
    "lineColor": "#FFA524",
    "phase": "3",
    "status": "pl",
    "type": "metro"
  },
  {
    "stationName": "Sumanahalli Cross",
    "latitude": "12.9881389",
    "longitude": "77.5174015",
    "line": "Orange",
    "lineColor": "#FFA525",
    "phase": "3",
    "status": "pl",
    "type": "metro"
  },
  {
    "stationName": "Sunkadakatte",
    "latitude": "12.9898995",
    "longitude": "77.5053029",
    "line": "Orange",
    "lineColor": "#FFA526",
    "phase": "3",
    "status": "pl",
    "type": "metro"
  },
  {
    "stationName": "Herohalli",
    "latitude": "12.9866087",
    "longitude": "77.4900255",
    "line": "Orange",
    "lineColor": "#FFA527",
    "phase": "3",
    "status": "pl",
    "type": "metro"
  },
  {
    "stationName": "Byadarahalli",
    "latitude": "12.9856916",
    "longitude": "77.4791927",
    "line": "Orange",
    "lineColor": "#FFA528",
    "phase": "3",
    "status": "pl",
    "type": "metro"
  },
  {
    "stationName": "Forest Gate",
    "latitude": "12.9916007",
    "longitude": "77.4646027",
    "line": "Orange",
    "lineColor": "#FFA529",
    "phase": "3",
    "status": "pl",
    "type": "metro"
  },
  {
    "stationName": "Kadabagere",
    "latitude": "12.9885052",
    "longitude": "77.4485493",
    "line": "Orange",
    "lineColor": "#FFA530",
    "phase": "3",
    "status": "pl",
    "type": "metro"
  },
  {
    "stationName": "Sarjapur",
    "latitude": "12.860877",
    "longitude": "77.7831576",
    "line": "Red",
    "lineColor": "#C41E3A",
    "phase": "3A",
    "status": "pl",
    "type": "metro"
  },
  {
    "stationName": "Sompura",
    "latitude": "12.8721584",
    "longitude": "77.7664605",
    "line": "Red",
    "lineColor": "#C41E3A",
    "phase": "3A",
    "status": "pl",
    "type": "metro"
  },
  {
    "stationName": "Dommasandra Circle",
    "latitude": "12.8831983",
    "longitude": "77.7526175",
    "line": "Red",
    "lineColor": "#C41E3A",
    "phase": "3A",
    "status": "pl",
    "type": "metro"
  },
  {
    "stationName": "Muthnallur Cross",
    "latitude": "12.8873759",
    "longitude": "77.7386149",
    "line": "Red",
    "lineColor": "#C41E3A",
    "phase": "3A",
    "status": "pl",
    "type": "metro"
  },
  {
    "stationName": "Sulikunte",
    "latitude": "12.8915574",
    "longitude": "77.7295287",
    "line": "Red",
    "lineColor": "#C41E3A",
    "phase": "3A",
    "status": "pl",
    "type": "metro"
  },
  {
    "stationName": "Kodathi",
    "latitude": "12.8964142",
    "longitude": "77.7207375",
    "line": "Red",
    "lineColor": "#C41E3A",
    "phase": "3A",
    "status": "pl",
    "type": "metro"
  },
  {
    "stationName": "Ambedkar Nagara",
    "latitude": "12.8993051",
    "longitude": "77.7126049",
    "line": "Red",
    "lineColor": "#C41E3A",
    "phase": "3A",
    "status": "pl",
    "type": "metro"
  },
  {
    "stationName": "Carmelaram",
    "latitude": "12.9033341",
    "longitude": "77.7043324",
    "line": "Red",
    "lineColor": "#C41E3A",
    "phase": "3A",
    "status": "pl",
    "type": "metro"
  },
  {
    "stationName": "Doddakanalli Gate",
    "latitude": "12.9071192",
    "longitude": "77.6959301",
    "line": "Red",
    "lineColor": "#C41E3A",
    "phase": "3A",
    "status": "pl",
    "type": "metro"
  },
  {
    "stationName": "Kaikondrahalli",
    "latitude": "12.910939",
    "longitude": "77.6841038",
    "line": "Red",
    "lineColor": "#C41E3A",
    "phase": "3A",
    "status": "pl",
    "type": "metro"
  },
  {
    "stationName": "Bellandur Gate",
    "latitude": "12.9183883",
    "longitude": "77.6703603",
    "line": "Red",
    "lineColor": "#C41E3A",
    "phase": "3A",
    "status": "pl",
    "type": "metro"
  },
  {
    "stationName": "Ibbalur",
    "latitude": "12.9210948",
    "longitude": "77.663041",
    "line": "Red",
    "lineColor": "#C41E3A",
    "phase": "3A",
    "status": "pl",
    "type": "metro"
  },
  {
    "stationName": "Agara",
    "latitude": "12.9243467",
    "longitude": "77.6493305",
    "line": "Red",
    "lineColor": "#C41E3A",
    "phase": "3A",
    "status": "pl",
    "type": "metro"
  },
  {
    "stationName": "Jakkasandra",
    "latitude": "12.9247859",
    "longitude": "77.6379547",
    "line": "Red",
    "lineColor": "#C41E3A",
    "phase": "3A",
    "status": "pl",
    "type": "metro"
  },
  {
    "stationName": "Koramangala",
    "latitude": "12.9246197",
    "longitude": "77.6278634",
    "line": "Red",
    "lineColor": "#C41E3A",
    "phase": "3A",
    "status": "pl",
    "type": "metro"
  },
  {
    "stationName": "St. John's Hospital",
    "latitude": "12.9283033",
    "longitude": "77.6187508",
    "line": "Red",
    "lineColor": "#C41E3A",
    "phase": "3A",
    "status": "pl",
    "type": "metro"
  },
  {
    "stationName": "Sudduguntepalya",
    "latitude": "12.9348808",
    "longitude": "77.6097017",
    "line": "Red",
    "lineColor": "#C41E3A",
    "phase": "3A",
    "status": "pl",
    "type": "metro"
  },
  {
    "stationName": "Dairy Circle",
    "latitude": "12.9372346",
    "longitude": "77.6024057",
    "line": "Red",
    "lineColor": "#C41E3A",
    "phase": "3A",
    "status": "pl",
    "type": "metro"
  },
  {
    "stationName": "NIMHANS",
    "latitude": "12.9459211",
    "longitude": "77.5956082",
    "line": "Red",
    "lineColor": "#C41E3A",
    "phase": "3A",
    "status": "pl",
    "type": "metro"
  },
  {
    "stationName": "Wilson Garden",
    "latitude": "12.9515047",
    "longitude": "77.5912641",
    "line": "Red",
    "lineColor": "#C41E3A",
    "phase": "3A",
    "status": "pl",
    "type": "metro"
  },
  {
    "stationName": "Town Hall",
    "latitude": "12.9628066",
    "longitude": "77.5849669",
    "line": "Red",
    "lineColor": "#C41E3A",
    "phase": "3A",
    "status": "pl",
    "type": "metro"
  },
  {
    "stationName": "Central College",
    "latitude": "12.9746681",
    "longitude": "77.5866196",
    "line": "Red",
    "lineColor": "#C41E3A",
    "phase": "3A",
    "status": "pl",
    "type": "metro"
  },
  {
    "stationName": "Basaveshwara Circle",
    "latitude": "12.9842127",
    "longitude": "77.5866182",
    "line": "Red",
    "lineColor": "#C41E3A",
    "phase": "3A",
    "status": "pl",
    "type": "metro"
  },
  {
    "stationName": "Cunningham Road",
    "latitude": "12.9935798",
    "longitude": "77.5853669",
    "line": "Red",
    "lineColor": "#C41E3A",
    "phase": "3A",
    "status": "pl",
    "type": "metro"
  },
  {
    "stationName": "Palace Guttalahalli",
    "latitude": "13.0028501",
    "longitude": "77.5842457",
    "line": "Red",
    "lineColor": "#C41E3A",
    "phase": "3A",
    "status": "pl",
    "type": "metro"
  },
  {
    "stationName": "Mekhri Circle",
    "latitude": "13.0140348",
    "longitude": "77.5843239",
    "line": "Red",
    "lineColor": "#C41E3A",
    "phase": "3A",
    "status": "pl",
    "type": "metro"
  },
  {
    "stationName": "Gangenahalli",
    "latitude": "13.0243522",
    "longitude": "77.5850531",
    "line": "Red",
    "lineColor": "#C41E3A",
    "phase": "3A",
    "status": "pl",
    "type": "metro"
  },
  {
    "stationName": "Veterinery College",
    "latitude": "13.0337381",
    "longitude": "77.5886971",
    "line": "Red",
    "lineColor": "#C41E3A",
    "phase": "3A",
    "status": "pl",
    "type": "metro"
  },
  {
    "stationName": "Hebbal",
    "latitude": "13.0421781",
    "longitude": "77.59092",
    "line": "Red",
    "lineColor": "#C41E3A",
    "phase": "3A",
    "status": "pl",
    "type": "metro"
  },
  {
    "stationName": "KSR Bengaluru City",
    "latitude": "12.9763993",
    "longitude": "77.5680047",
    "line": "1",
    "lineColor": "#71797E",
    "phase": "1",
    "status": "pl",
    "type": "suburban"
  },
  {
    "stationName": "Srirampura",
    "latitude": "12.9898314",
    "longitude": "77.5701609",
    "line": "1",
    "lineColor": "#71797E",
    "phase": "1",
    "status": "pl",
    "type": "suburban"
  },
  {
    "stationName": "Malleshwaram",
    "latitude": "13.000268",
    "longitude": "77.563846",
    "line": "1",
    "lineColor": "#71797E",
    "phase": "1",
    "status": "pl",
    "type": "suburban"
  },
  {
    "stationName": "Yeshwantpura",
    "latitude": "13.0249305",
    "longitude": "77.5504576",
    "line": "1",
    "lineColor": "#71797E",
    "phase": "1",
    "status": "pl",
    "type": "suburban"
  },
  {
    "stationName": "Muthyalanagar",
    "latitude": "13.0402376",
    "longitude": "77.5487657",
    "line": "1",
    "lineColor": "#71797E",
    "phase": "1",
    "status": "pl",
    "type": "suburban"
  },
  {
    "stationName": "Lottegollahalli",
    "latitude": "13.0409691",
    "longitude": "77.5614788",
    "line": "1",
    "lineColor": "#71797E",
    "phase": "1",
    "status": "pl",
    "type": "suburban"
  },
  {
    "stationName": "Kodigehalli",
    "latitude": "13.0634747",
    "longitude": "77.5764447",
    "line": "1",
    "lineColor": "#71797E",
    "phase": "1",
    "status": "pl",
    "type": "suburban"
  },
  {
    "stationName": "Judicial Layout",
    "latitude": "13.0782532",
    "longitude": "77.5908959",
    "line": "1",
    "lineColor": "#71797E",
    "phase": "1",
    "status": "pl",
    "type": "suburban"
  },
  {
    "stationName": "Yelahanka",
    "latitude": "13.1048589",
    "longitude": "77.5918456",
    "line": "1",
    "lineColor": "#71797E",
    "phase": "1",
    "status": "pl",
    "type": "suburban"
  },
  {
    "stationName": "Nitte Meenakshi",
    "latitude": "13.1298122",
    "longitude": "77.5863858",
    "line": "1",
    "lineColor": "#71797E",
    "phase": "1",
    "status": "pl",
    "type": "suburban"
  },
  {
    "stationName": "Bettahalasuru",
    "latitude": "13.1661799",
    "longitude": "77.6044728",
    "line": "1",
    "lineColor": "#71797E",
    "phase": "1",
    "status": "pl",
    "type": "suburban"
  },
  {
    "stationName": "Doddajala",
    "latitude": "13.1833786",
    "longitude": "77.6522495",
    "line": "1",
    "lineColor": "#71797E",
    "phase": "1",
    "status": "pl",
    "type": "suburban"
  },
  {
    "stationName": "Airport Trumpet",
    "latitude": "13.2017765",
    "longitude": "77.6634123",
    "line": "1",
    "lineColor": "#71797E",
    "phase": "1",
    "status": "pl",
    "type": "suburban"
  },
  {
    "stationName": "Airport KIADB",
    "latitude": "13.2106293",
    "longitude": "77.6761412",
    "line": "1",
    "lineColor": "#71797E",
    "phase": "1",
    "status": "pl",
    "type": "suburban"
  },
  {
    "stationName": "Devanahalli",
    "latitude": "13.2472319",
    "longitude": "77.7052179",
    "line": "1",
    "lineColor": "#71797E",
    "phase": "1",
    "status": "pl",
    "type": "suburban"
  },
  {
    "stationName": "Benniganahalli",
    "latitude": "12.9935459",
    "longitude": "77.6648969",
    "line": "2",
    "lineColor": "#71797E",
    "phase": "1",
    "status": "uc",
    "type": "suburban"
  },
  {
    "stationName": "Kasturi Nagar",
    "latitude": "13.0039005",
    "longitude": "77.6557159",
    "line": "2",
    "lineColor": "#71797E",
    "phase": "1",
    "status": "uc",
    "type": "suburban"
  },
  {
    "stationName": "Sevanagar",
    "latitude": "13.0046304",
    "longitude": "77.637901",
    "line": "2",
    "lineColor": "#71797E",
    "phase": "1",
    "status": "uc",
    "type": "suburban"
  },
  {
    "stationName": "Banaswadi",
    "latitude": "13.0061761",
    "longitude": "77.6281316",
    "line": "2",
    "lineColor": "#71797E",
    "phase": "1",
    "status": "uc",
    "type": "suburban"
  },
  {
    "stationName": "Kaveri Nagara",
    "latitude": "13.0131776",
    "longitude": "77.6215141",
    "line": "2",
    "lineColor": "#71797E",
    "phase": "1",
    "status": "pl",
    "type": "suburban"
  },
  {
    "stationName": "Nagavara",
    "latitude": "13.0269799",
    "longitude": "77.6185605",
    "line": "2",
    "lineColor": "#71797E",
    "phase": "1",
    "status": "uc",
    "type": "suburban"
  },
  {
    "stationName": "Kanaka Nagara",
    "latitude": "13.036912",
    "longitude": "77.6106981",
    "line": "2",
    "lineColor": "#71797E",
    "phase": "1",
    "status": "uc",
    "type": "suburban"
  },
  {
    "stationName": "Hebbal",
    "latitude": "13.0412566",
    "longitude": "77.5918678",
    "line": "2",
    "lineColor": "#71797E",
    "phase": "1",
    "status": "uc",
    "type": "suburban"
  },
  {
    "stationName": "Mathikere",
    "latitude": "13.0341031",
    "longitude": "77.5563766",
    "line": "2",
    "lineColor": "#71797E",
    "phase": "1",
    "status": "uc",
    "type": "suburban"
  },
  {
    "stationName": "Yeshwantpura",
    "latitude": "13.0249305",
    "longitude": "77.5504576",
    "line": "2",
    "lineColor": "#71797E",
    "phase": "1",
    "status": "uc",
    "type": "suburban"
  },
  {
    "stationName": "Jalahalli",
    "latitude": "13.0465943",
    "longitude": "77.5378833",
    "line": "2",
    "lineColor": "#71797E",
    "phase": "1",
    "status": "pl",
    "type": "suburban"
  },
  {
    "stationName": "Shettyhalli",
    "latitude": "13.0580944",
    "longitude": "77.5319324",
    "line": "2",
    "lineColor": "#71797E",
    "phase": "1",
    "status": "uc",
    "type": "suburban"
  },
  {
    "stationName": "Myadarahalli",
    "latitude": "13.0687976",
    "longitude": "77.5123247",
    "line": "2",
    "lineColor": "#71797E",
    "phase": "1",
    "status": "uc",
    "type": "suburban"
  },
  {
    "stationName": "Chikkabanavara",
    "latitude": "13.0758531",
    "longitude": "77.5052006",
    "line": "2",
    "lineColor": "#71797E",
    "phase": "1",
    "status": "uc",
    "type": "suburban"
  },
  {
    "stationName": "Kengeri",
    "latitude": "12.9172798",
    "longitude": "77.4838231",
    "line": "3",
    "lineColor": "#71797E",
    "phase": "1",
    "status": "pl",
    "type": "suburban"
  },
  {
    "stationName": "RV College",
    "latitude": "12.9266013",
    "longitude": "77.4997271",
    "line": "3",
    "lineColor": "#71797E",
    "phase": "1",
    "status": "pl",
    "type": "suburban"
  },
  {
    "stationName": "Jnanabharati",
    "latitude": "12.9348327",
    "longitude": "77.5104523",
    "line": "3",
    "lineColor": "#71797E",
    "phase": "1",
    "status": "pl",
    "type": "suburban"
  },
  {
    "stationName": "Nayandahalli",
    "latitude": "12.9414179",
    "longitude": "77.5203013",
    "line": "3",
    "lineColor": "#71797E",
    "phase": "1",
    "status": "pl",
    "type": "suburban"
  },
  {
    "stationName": "Krishnadevaraya",
    "latitude": "12.9588905",
    "longitude": "77.5399265",
    "line": "3",
    "lineColor": "#71797E",
    "phase": "1",
    "status": "pl",
    "type": "suburban"
  },
  {
    "stationName": "Jagjeevanramnagar",
    "latitude": "12.9665493",
    "longitude": "77.5500365",
    "line": "3",
    "lineColor": "#71797E",
    "phase": "1",
    "status": "pl",
    "type": "suburban"
  },
  {
    "stationName": "KSR Bengaluru City",
    "latitude": "12.9763993",
    "longitude": "77.5680047",
    "line": "3",
    "lineColor": "#71797E",
    "phase": "1",
    "status": "pl",
    "type": "suburban"
  },
  {
    "stationName": "Kumara Park",
    "latitude": "12.9889292",
    "longitude": "77.5787151",
    "line": "3",
    "lineColor": "#71797E",
    "phase": "1",
    "status": "pl",
    "type": "suburban"
  },
  {
    "stationName": "Cantonment",
    "latitude": "12.992223",
    "longitude": "77.6022693",
    "line": "3",
    "lineColor": "#71797E",
    "phase": "1",
    "status": "pl",
    "type": "suburban"
  },
  {
    "stationName": "Bengaluru East",
    "latitude": "13.001259",
    "longitude": "77.6182083",
    "line": "3",
    "lineColor": "#71797E",
    "phase": "1",
    "status": "pl",
    "type": "suburban"
  },
  {
    "stationName": "Baiyappanahalli",
    "latitude": "12.9910093",
    "longitude": "77.6522661",
    "line": "3",
    "lineColor": "#71797E",
    "phase": "1",
    "status": "pl",
    "type": "suburban"
  },
  {
    "stationName": "Krishnarajapura",
    "latitude": "13.0008887",
    "longitude": "77.6751541",
    "line": "3",
    "lineColor": "#71797E",
    "phase": "1",
    "status": "pl",
    "type": "suburban"
  },
  {
    "stationName": "Hoodi",
    "latitude": "12.9963283",
    "longitude": "77.7184256",
    "line": "3",
    "lineColor": "#71797E",
    "phase": "1",
    "status": "pl",
    "type": "suburban"
  },
  {
    "stationName": "Whitefield",
    "latitude": "12.9961219",
    "longitude": "77.7614134",
    "line": "3",
    "lineColor": "#71797E",
    "phase": "1",
    "status": "pl",
    "type": "suburban"
  },
  {
    "stationName": "Heelalige",
    "latitude": "12.8115557",
    "longitude": "77.710958",
    "line": "4",
    "lineColor": "#71797E",
    "phase": "1",
    "status": "pl",
    "type": "suburban"
  },
  {
    "stationName": "Bommasandra",
    "latitude": "12.8256348",
    "longitude": "77.7124836",
    "line": "4",
    "lineColor": "#71797E",
    "phase": "1",
    "status": "pl",
    "type": "suburban"
  },
  {
    "stationName": "Singena Agrahara",
    "latitude": "12.8380928",
    "longitude": "77.7123518",
    "line": "4",
    "lineColor": "#71797E",
    "phase": "1",
    "status": "pl",
    "type": "suburban"
  },
  {
    "stationName": "Huskuru",
    "latitude": "12.8580819",
    "longitude": "77.7105493",
    "line": "4",
    "lineColor": "#71797E",
    "phase": "1",
    "status": "pl",
    "type": "suburban"
  },
  {
    "stationName": "Ambedkarnagar",
    "latitude": "12.88502",
    "longitude": "77.7079516",
    "line": "4",
    "lineColor": "#71797E",
    "phase": "1",
    "status": "pl",
    "type": "suburban"
  },
  {
    "stationName": "Carmelaram",
    "latitude": "12.9009284",
    "longitude": "77.7065275",
    "line": "4",
    "lineColor": "#71797E",
    "phase": "1",
    "status": "pl",
    "type": "suburban"
  },
  {
    "stationName": "Belandur Road",
    "latitude": "12.9371831",
    "longitude": "77.7073064",
    "line": "4",
    "lineColor": "#71797E",
    "phase": "1",
    "status": "pl",
    "type": "suburban"
  },
  {
    "stationName": "Marathahalli",
    "latitude": "12.9557293",
    "longitude": "77.7047727",
    "line": "4",
    "lineColor": "#71797E",
    "phase": "1",
    "status": "pl",
    "type": "suburban"
  },
  {
    "stationName": "Doddanekundi",
    "latitude": "12.9752758",
    "longitude": "77.694708",
    "line": "4",
    "lineColor": "#71797E",
    "phase": "1",
    "status": "pl",
    "type": "suburban"
  },
  {
    "stationName": "Kaggadasapura",
    "latitude": "12.9851046",
    "longitude": "77.6774347",
    "line": "4",
    "lineColor": "#71797E",
    "phase": "1",
    "status": "pl",
    "type": "suburban"
  },
  {
    "stationName": "Benniganahalli",
    "latitude": "12.9935459",
    "longitude": "77.6648969",
    "line": "4",
    "lineColor": "#71797E",
    "phase": "1",
    "status": "pl",
    "type": "suburban"
  },
  {
    "stationName": "Channasandra",
    "latitude": "13.0111402",
    "longitude": "77.6632773",
    "line": "4",
    "lineColor": "#71797E",
    "phase": "1",
    "status": "pl",
    "type": "suburban"
  },
  {
    "stationName": "Horamavu",
    "latitude": "13.0257898",
    "longitude": "77.658804",
    "line": "4",
    "lineColor": "#71797E",
    "phase": "1",
    "status": "pl",
    "type": "suburban"
  },
  {
    "stationName": "Hennur",
    "latitude": "13.0351633",
    "longitude": "77.6511204",
    "line": "4",
    "lineColor": "#71797E",
    "phase": "1",
    "status": "pl",
    "type": "suburban"
  },
  {
    "stationName": "Thanisandra",
    "latitude": "13.0599793",
    "longitude": "77.6321841",
    "line": "4",
    "lineColor": "#71797E",
    "phase": "1",
    "status": "pl",
    "type": "suburban"
  },
  {
    "stationName": "RK Hegdenagara",
    "latitude": "13.0692635",
    "longitude": "77.6215689",
    "line": "4",
    "lineColor": "#71797E",
    "phase": "1",
    "status": "pl",
    "type": "suburban"
  },
  {
    "stationName": "Jakkur",
    "latitude": "13.0778242",
    "longitude": "77.6116009",
    "line": "4",
    "lineColor": "#71797E",
    "phase": "1",
    "status": "pl",
    "type": "suburban"
  },
  {
    "stationName": "Yelahanka",
    "latitude": "13.1048589",
    "longitude": "77.5918456",
    "line": "4",
    "lineColor": "#71797E",
    "phase": "1",
    "status": "pl",
    "type": "suburban"
  },
  {
    "stationName": "Muddenahalli",
    "latitude": "13.1457587",
    "longitude": "77.5706341",
    "line": "4",
    "lineColor": "#71797E",
    "phase": "1",
    "status": "pl",
    "type": "suburban"
  },
  {
    "stationName": "Rajankunte",
    "latitude": "13.1745017",
    "longitude": "77.5655193",
    "line": "4",
    "lineColor": "#71797E",
    "phase": "1",
    "status": "pl",
    "type": "suburban"
  }
]