[
  {
    "stationName": "Central Silk Board",
    "latitude": "12.9174453",
    "longitude": "77.6233675",
    "line": "Blue",
    "lineColor": "#0000FF",
    "phase": "2A",
    "status": "uc",
    "type": "metro"
  },
  {
    "stationName": "HSR Layout",
    "latitude": "12.9164672",
    "longitude": "77.6330593",
    "line": "Blue",
    "lineColor": "#0000FF",
    "phase": "2A",
    "status": "uc",
    "type": "metro"
  },
  {
    "stationName": "Agara Lake",
    "latitude": "12.920791",
    "longitude": "77.6437319",
    "line": "Blue",
    "lineColor": "#0000FF",
    "phase": "2A",
    "status": "uc",
    "type": "metro"
  },
  {
    "stationName": "Ibbaluru",
    "latitude": "12.9211679",
    "longitude": "77.6630477",
    "line": "Blue",
    "lineColor": "#0000FF",
    "phase": "2A",
    "status": "uc",
    "type": "metro"
  },
  {
    "stationName": "Bellandur",
    "latitude": "12.9276914",
    "longitude": "77.6801937",
    "line": "Blue",
    "lineColor": "#0000FF",
    "phase": "2A",
    "status": "uc",
    "type": "metro"
  },
  {
    "stationName": "Kadubeesanahalli",
    "latitude": "12.9319543",
    "longitude": "77.6872831",
    "line": "Blue",
    "lineColor": "#0000FF",
    "phase": "2A",
    "status": "uc",
    "type": "metro"
  },
  {
    "stationName": "Kodibeesanahalli",
    "latitude": "12.9445228",
    "longitude": "77.6979238",
    "line": "Blue",
    "lineColor": "#0000FF",
    "phase": "2A",
    "status": "uc",
    "type": "metro"
  },
  {
    "stationName": "Marthahalli",
    "latitude": "12.9579796",
    "longitude": "77.7012454",
    "line": "Blue",
    "lineColor": "#0000FF",
    "phase": "2A",
    "status": "uc",
    "type": "metro"
  },
  {
    "stationName": "ISRO",
    "latitude": "12.9690368",
    "longitude": "77.7011184",
    "line": "Blue",
    "lineColor": "#0000FF",
    "phase": "2A",
    "status": "uc",
    "type": "metro"
  }
]